{"type": "FeatureCollection", "features": [{"type": "Feature", "properties": {"name": "KA07 Kepong Sentral", "network": "", "operator": "KTM", "public_transport": "station"}, "geometry": {"type": "Point", "coordinates": [101.6285344, 3.2087148]}}, {"type": "Feature", "properties": {"name": "KB07 UKM", "network": "KTM Komuter", "operator": "Keretapi Tanah Melayu", "public_transport": "station"}, "geometry": {"type": "Point", "coordinates": [101.7877867, 2.9395784]}}, {"type": "Feature", "properties": {"name": "Pintu E", "network": "", "operator": "", "public_transport": ""}, "geometry": {"type": "Point", "coordinates": [101.6943318, 3.1423177]}}, {"type": "Feature", "properties": {"name": "KB02 Seputeh", "network": "", "operator": "KTM", "public_transport": "station"}, "geometry": {"type": "Point", "coordinates": [101.68142, 3.1136874]}}, {"type": "Feature", "properties": {"name": "Masjid Jamek (AG SP)", "network": "", "operator": "", "public_transport": "stop_position"}, "geometry": {"type": "Point", "coordinates": [101.6964028, 3.1494677]}}, {"type": "Feature", "properties": {"name": "KLIA Terminal 1 (Main Building)", "network": "KLIA Aerotrain", "operator": "", "public_transport": "station"}, "geometry": {"type": "Point", "coordinates": [101.7056607, 2.7525893]}}, {"type": "Feature", "properties": {"name": "KLIA Terminal 1 (Satellite Building)", "network": "KLIA Aerotrain", "operator": "", "public_transport": "station"}, "geometry": {"type": "Point", "coordinates": [101.7128047, 2.7474325]}}, {"type": "Feature", "properties": {"name": "Chan Sow Lin", "network": "", "operator": "", "public_transport": "stop_position"}, "geometry": {"type": "Point", "coordinates": [101.7156571, 3.1277484]}}, {"type": "Feature", "properties": {"name": "KA12 Batang Kali", "network": "", "operator": "KTM", "public_transport": "station"}, "geometry": {"type": "Point", "coordinates": [101.6377216, 3.4685255]}}, {"type": "Feature", "properties": {"name": "KB15 Sungai Gadut", "network": "", "operator": "KTM", "public_transport": "station"}, "geometry": {"type": "Point", "coordinates": [101.996243, 2.6604751]}}, {"type": "Feature", "properties": {"name": "KJ15 KL Sentral", "network": "", "operator": "", "public_transport": "station"}, "geometry": {"type": "Point", "coordinates": [101.6865153, 3.1341106]}}, {"type": "Feature", "properties": {"name": "KJ10 KLCC", "network": "Kelana Jaya Line", "operator": "Rapid KL", "public_transport": "station"}, "geometry": {"type": "Point", "coordinates": [101.7133662, 3.1592469]}}, {"type": "Feature", "properties": {"name": "AG7 SP7 KJ13 Masjid Jamek", "network": "", "operator": "Rapid KL", "public_transport": "station"}, "geometry": {"type": "Point", "coordinates": [101.696461, 3.1494076]}}, {"type": "Feature", "properties": {"name": "KLIA T1", "network": "KLIA Transit;KLIA Ekspres", "operator": "Express Rail Link", "public_transport": "station"}, "geometry": {"type": "Point", "coordinates": [101.7046397, 2.7547334]}}, {"type": "Feature", "properties": {"name": "West Entrance", "network": "", "operator": "", "public_transport": ""}, "geometry": {"type": "Point", "coordinates": [101.6855317, 3.133832]}}, {"type": "Feature", "properties": {"name": "Pintu D", "network": "", "operator": "", "public_transport": ""}, "geometry": {"type": "Point", "coordinates": [101.6938787, 3.139238]}}, {"type": "Feature", "properties": {"name": "Pintu C", "network": "", "operator": "", "public_transport": ""}, "geometry": {"type": "Point", "coordinates": [101.6940199, 3.1397019]}}, {"type": "Feature", "properties": {"name": "East Entrance", "network": "", "operator": "", "public_transport": ""}, "geometry": {"type": "Point", "coordinates": [101.6871271, 3.1347881]}}, {"type": "Feature", "properties": {"name": "North Entrance", "network": "", "operator": "", "public_transport": ""}, "geometry": {"type": "Point", "coordinates": [101.6860718, 3.1348908]}}, {"type": "Feature", "properties": {"name": "Pintu B", "network": "", "operator": "", "public_transport": ""}, "geometry": {"type": "Point", "coordinates": [101.6932905, 3.1394769]}}, {"type": "Feature", "properties": {"name": "Pintu A", "network": "", "operator": "", "public_transport": ""}, "geometry": {"type": "Point", "coordinates": [101.6934724, 3.1400962]}}]}